{"type":"FeatureCollection","features":[{"type":"Feature","geometry":{"type":"Point","coordinates":[-3.189812,55.94409]},"properties":{"marker-symbol":"lighthouse","location":"cliff.asleep.wedge","rgb-string":"#40ff00","marker-color":"#40ff00"}},{"type":"Feature","geometry":{"type":"Point","coordinates":[-3.186729,55.945168]},"properties":{"marker-symbol":"danger","location":"dragon.bottle.crisp","rgb-string":"#ff0000","marker-color":"#ff0000"}},{"type":"Feature","geometry":{"type":"Point","coordinates":[-3.191113,55.943631]},"properties":{"marker-symbol":"lighthouse","location":"loaf.cheer.slave","rgb-string":"#00ff00","marker-color":"#00ff00"}},{"type":"Feature","geometry":{"type":"Point","coordinates":[-3.185621,55.943065]},"properties":{"marker-symbol":"cross","location":"toned.deflection.bland","rgb-string":"#000000","marker-color":"#000000"}},{"type":"Feature","geometry":{"type":"Point","coordinates":[-3.184754,55.943012]},"properties":{"marker-symbol":"danger","location":"courier.assume.bill","rgb-string":"#ffc000","marker-color":"#ffc000"}},{"type":"Feature","geometry":{"type":"Point","coordinates":[-3.191257,55.945599]},"properties":{"marker-symbol":"danger","location":"skins.engage.best","rgb-string":"#ff4000","marker-color":"#ff4000"}},{"type":"Feature","geometry":{"type":"Point","coordinates":[-3.190053,55.943173]},"properties":{"marker-symbol":"lighthouse","location":"shows.fries.lamp","rgb-string":"#40ff00","marker-color":"#40ff00"}},{"type":"Feature","geometry":{"type":"Point","coordinates":[-3.188463,55.945761]},"properties":{"marker-symbol":"danger","location":"bend.tubes.chops","rgb-string":"#ff4000","marker-color":"#ff4000"}},{"type":"Feature","geometry":{"type":"Point","coordinates":[-3.189186,55.945087]},"properties":{"marker-symbol":"danger","location":"number.exist.rate","rgb-string":"#ffc000","marker-color":"#ffc000"}},{"type":"Feature","geometry":{"type":"Point","coordinates":[-3.187837,55.943227]},"properties":{"marker-symbol":"lighthouse","location":"gums.clock.modes","rgb-string":"#80ff00","marker-color":"#80ff00"}},{"type":"Feature","geometry":{"type":"Point","coordinates":[-3.187355,55.943604]},"properties":{"marker-symbol":"lighthouse","location":"shut.stands.media","rgb-string":"#80ff00","marker-color":"#80ff00"}},{"type":"Feature","geometry":{"type":"Point","coordinates":[-3.186537,55.944925]},"properties":{"marker-symbol":"danger","location":"laws.merit.bleak","rgb-string":"#ff0000","marker-color":"#ff0000"}},{"type":"Feature","geometry":{"type":"Point","coordinates":[-3.18697,55.942688]},"properties":{"marker-symbol":"lighthouse","location":"strut.river.surely","rgb-string":"#c0ff00","marker-color":"#c0ff00"}},{"type":"Feature","geometry":{"type":"Point","coordinates":[-3.185814,55.943551]},"properties":{"marker-symbol":"cross","location":"record.sofa.sock","rgb-string":"#000000","marker-color":"#000000"}},{"type":"Feature","geometry":{"type":"Point","coordinates":[-3.186922,55.945437]},"properties":{"marker-symbol":"danger","location":"spent.spoon.bolt","rgb-string":"#ff8000","marker-color":"#ff8000"}},{"type":"Feature","geometry":{"type":"Point","coordinates":[-3.184947,55.943443]},"properties":{"marker-symbol":"danger","location":"sentences.sings.modern","rgb-string":"#ffc000","marker-color":"#ffc000"}},{"type":"Feature","geometry":{"type":"Point","coordinates":[-3.187018,55.943982]},"properties":{"marker-symbol":"lighthouse","location":"renew.ears.tend","rgb-string":"#c0ff00","marker-color":"#c0ff00"}},{"type":"Feature","geometry":{"type":"Point","coordinates":[-3.192221,55.945114]},"properties":{"marker-symbol":"lighthouse","location":"useful.hike.trades","rgb-string":"#c0ff00","marker-color":"#c0ff00"}},{"type":"Feature","geometry":{"type":"Point","coordinates":[-3.187885,55.944709]},"properties":{"marker-symbol":"lighthouse","location":"hurt.green.filer","rgb-string":"#c0ff00","marker-color":"#c0ff00"}},{"type":"Feature","geometry":{"type":"Point","coordinates":[-3.184513,55.945302]},"properties":{"marker-symbol":"danger","location":"settle.title.united","rgb-string":"#ffc000","marker-color":"#ffc000"}},{"type":"Feature","geometry":{"type":"Point","coordinates":[-3.187645,55.944143]},"properties":{"marker-symbol":"lighthouse","location":"bound.ends.matter","rgb-string":"#80ff00","marker-color":"#80ff00"}},{"type":"Feature","geometry":{"type":"Point","coordinates":[-3.189957,55.94603]},"properties":{"marker-symbol":"danger","location":"love.behind.orchestra","rgb-string":"#ffc000","marker-color":"#ffc000"}},{"type":"Feature","geometry":{"type":"Point","coordinates":[-3.185814,55.94603]},"properties":{"marker-symbol":"danger","location":"renew.slows.basket","rgb-string":"#ff8000","marker-color":"#ff8000"}},{"type":"Feature","geometry":{"type":"Point","coordinates":[-3.186777,55.944575]},"properties":{"marker-symbol":"cross","location":"artist.gets.react","rgb-string":"#000000","marker-color":"#000000"}},{"type":"Feature","geometry":{"type":"Point","coordinates":[-3.184658,55.943874]},"properties":{"marker-symbol":"danger","location":"rider.mile.lime","rgb-string":"#ffc000","marker-color":"#ffc000"}},{"type":"Feature","geometry":{"type":"Point","coordinates":[-3.189234,55.943012]},"properties":{"marker-symbol":"lighthouse","location":"region.passes.pencil","rgb-string":"#80ff00","marker-color":"#80ff00"}},{"type":"Feature","geometry":{"type":"Point","coordinates":[-3.185621,55.945761]},"properties":{"marker-symbol":"danger","location":"shed.desire.muddy","rgb-string":"#ff8000","marker-color":"#ff8000"}},{"type":"Feature","geometry":{"type":"Point","coordinates":[-3.18933,55.945653]},"properties":{"marker-symbol":"danger","location":"museum.spicy.horns","rgb-string":"#ffc000","marker-color":"#ffc000"}},{"type":"Feature","geometry":{"type":"Point","coordinates":[-3.191016,55.944979]},"properties":{"marker-symbol":"danger","location":"shapes.sheep.nature","rgb-string":"#ff4000","marker-color":"#ff4000"}},{"type":"Feature","geometry":{"type":"Point","coordinates":[-3.188801,55.945437]},"properties":{"marker-symbol":"cross","location":"shady.soft.phones","rgb-string":"#000000","marker-color":"#000000"}},{"type":"Feature","geometry":{"type":"Point","coordinates":[-3.1875,55.943874]},"properties":{"marker-symbol":"lighthouse","location":"begins.spider.drips","rgb-string":"#80ff00","marker-color":"#80ff00"}},{"type":"Feature","geometry":{"type":"Point","coordinates":[-3.186537,55.944063]},"properties":{"marker-symbol":"danger","location":"lime.learns.front","rgb-string":"#ff8000","marker-color":"#ff8000"}},{"type":"Feature","geometry":{"type":"Point","coordinates":[-3.18986,55.945491]},"properties":{"marker-symbol":"danger","location":"turkey.limit.ramp","rgb-string":"#ffc000","marker-color":"#ffc000"}},{"type":"Feature","geometry":{"type":"LineString","coordinates":[[-3.188396,55.944425],[-3.1885888,55.9446548],[-3.1887817,55.9448846],[-3.1890115,55.9450775],[-3.1892043,55.9453073],[-3.1894341,55.9455001],[-3.189627,55.9457299],[-3.1898568,55.9459228],[-3.1895749,55.9458202],[-3.1893151,55.9456702],[-3.1890332,55.9455676],[-3.1887734,55.9454176],[-3.1885805,55.9456474],[-3.1883877,55.9454176],[-3.1881948,55.9451877],[-3.1880448,55.9449279],[-3.187852,55.9446981],[-3.1877494,55.9444162],[-3.1876468,55.9441343],[-3.1874968,55.9438745],[-3.1873468,55.9436147],[-3.187154,55.9438445],[-3.1868721,55.9439471],[-3.1865901,55.9440497],[-3.1862947,55.9441018],[-3.1862426,55.9443972],[-3.1860498,55.9446271],[-3.1863498,55.9446271],[-3.1866452,55.944575],[-3.1865426,55.9448569],[-3.1866926,55.9451167],[-3.1868854,55.9453465],[-3.1870783,55.9455763],[-3.1873737,55.9455242],[-3.1876737,55.9455242],[-3.1879692,55.9454721],[-3.1882511,55.9453695],[-3.188199,55.9450741],[-3.1881469,55.9447786],[-3.1880948,55.9444832],[-3.1880427,55.9441877],[-3.1879906,55.9438923],[-3.1879385,55.9435969],[-3.1878359,55.943315],[-3.1875405,55.943367],[-3.187245,55.9434191],[-3.1869496,55.9434712],[-3.1866496,55.9434712],[-3.1863541,55.9435233],[-3.1860541,55.9435233],[-3.1857587,55.9435754],[-3.1856561,55.9432935],[-3.185604,55.9429981],[-3.1853442,55.9431481],[-3.1851144,55.9433409],[-3.1848846,55.9431481],[-3.1847819,55.94343],[-3.1846793,55.9437119],[-3.1849612,55.9436093],[-3.1852432,55.9435067],[-3.185503,55.9433567],[-3.1857849,55.9432541],[-3.1860447,55.9431041],[-3.1863266,55.9430015],[-3.1865864,55.9428515],[-3.1868683,55.9427489],[-3.1871502,55.9428515],[-3.1874321,55.9429541],[-3.1876919,55.9431041],[-3.1879738,55.9432067],[-3.1882336,55.9433567],[-3.1885156,55.9434593],[-3.1887754,55.9436093],[-3.1890573,55.9437119],[-3.1893171,55.9438619],[-3.189599,55.9439645],[-3.1898588,55.9441145],[-3.1899109,55.9438191],[-3.189963,55.9435236],[-3.1900151,55.9432282],[-3.1897332,55.9431256],[-3.1894377,55.9430735],[-3.1891558,55.9429709],[-3.1894377,55.9430735],[-3.1897196,55.9431761],[-3.1900015,55.9432787],[-3.1902834,55.9433813],[-3.1905654,55.9434839],[-3.1908473,55.9435865],[-3.1911427,55.9436386],[-3.1908608,55.9437412],[-3.1905789,55.9438438],[-3.190297,55.9439464],[-3.1900151,55.944049],[-3.1897332,55.9441516],[-3.1894513,55.9442542],[-3.1891693,55.9443568],[-3.1888874,55.9444594],[-3.1886055,55.944562],[-3.1883236,55.9446647],[-3.1880417,55.9447673],[-3.1877417,55.9447673],[-3.1875917,55.9445075],[-3.1873098,55.9446101],[-3.1870144,55.9446622],[-3.1867325,55.9447648],[-3.1864727,55.9449148],[-3.1862428,55.9451076],[-3.18605,55.9453374],[-3.1858202,55.9455302],[-3.1856274,55.9457601],[-3.1857774,55.9460199],[-3.1855175,55.9458699],[-3.1852577,55.9457199],[-3.1849979,55.9455699],[-3.1847381,55.9454199],[-3.1844783,55.9452699],[-3.1847783,55.9452699],[-3.1850783,55.9452699],[-3.1853783,55.9452699],[-3.1856783,55.9452699],[-3.1859783,55.9452699],[-3.1862783,55.9452699],[-3.1865783,55.9452699],[-3.1868783,55.9452699],[-3.1870283,55.9455297],[-3.1873102,55.9456323],[-3.1876057,55.9455802],[-3.1879011,55.9455281],[-3.1881965,55.945476],[-3.188492,55.9454239],[-3.1887874,55.9453718],[-3.1890829,55.9453197],[-3.1893783,55.9452676],[-3.1896738,55.9452155],[-3.1899692,55.9451634],[-3.1902646,55.9451113],[-3.1905601,55.9450592],[-3.1908555,55.9450071],[-3.1910055,55.945267],[-3.1911984,55.9454968],[-3.1914803,55.9453942],[-3.1917622,55.9452916],[-3.1920441,55.9451889],[-3.1917486,55.945241],[-3.1914532,55.9452931],[-3.1911578,55.9453452],[-3.1908623,55.9453973],[-3.1905669,55.9454494],[-3.1902669,55.9454494],[-3.1899714,55.9455015]]},"properties":{}}]}