{"type":"FeatureCollection","features":[{"type":"Feature","geometry":{"type":"Point","coordinates":[-3.189234,55.943012]},"properties":{"marker-symbol":"lighthouse","location":"region.passes.pencil","rgb-string":"#80ff00","marker-color":"#80ff00"}},{"type":"Feature","geometry":{"type":"Point","coordinates":[-3.190197,55.943443]},"properties":{"marker-symbol":"lighthouse","location":"arts.dish.scarcely","rgb-string":"#40ff00","marker-color":"#40ff00"}},{"type":"Feature","geometry":{"type":"Point","coordinates":[-3.190727,55.943092]},"properties":{"marker-symbol":"lighthouse","location":"relate.chill.vest","rgb-string":"#40ff00","marker-color":"#40ff00"}},{"type":"Feature","geometry":{"type":"Point","coordinates":[-3.186922,55.945437]},"properties":{"marker-symbol":"cross","location":"spent.spoon.bolt","rgb-string":"#000000","marker-color":"#000000"}},{"type":"Feature","geometry":{"type":"Point","coordinates":[-3.187693,55.942769]},"properties":{"marker-symbol":"danger","location":"panic.squad.danger","rgb-string":"#ff8000","marker-color":"#ff8000"}},{"type":"Feature","geometry":{"type":"Point","coordinates":[-3.184899,55.944736]},"properties":{"marker-symbol":"danger","location":"slide.leads.stores","rgb-string":"#ff8000","marker-color":"#ff8000"}},{"type":"Feature","geometry":{"type":"Point","coordinates":[-3.191016,55.944979]},"properties":{"marker-symbol":"danger","location":"shapes.sheep.nature","rgb-string":"#ffc000","marker-color":"#ffc000"}},{"type":"Feature","geometry":{"type":"Point","coordinates":[-3.1875,55.943874]},"properties":{"marker-symbol":"lighthouse","location":"begins.spider.drips","rgb-string":"#c0ff00","marker-color":"#c0ff00"}},{"type":"Feature","geometry":{"type":"Point","coordinates":[-3.189523,55.943551]},"properties":{"marker-symbol":"lighthouse","location":"cars.attend.hotels","rgb-string":"#40ff00","marker-color":"#40ff00"}},{"type":"Feature","geometry":{"type":"Point","coordinates":[-3.186392,55.944656]},"properties":{"marker-symbol":"danger","location":"rated.fired.crowds","rgb-string":"#ff8000","marker-color":"#ff8000"}},{"type":"Feature","geometry":{"type":"Point","coordinates":[-3.191113,55.943631]},"properties":{"marker-symbol":"lighthouse","location":"loaf.cheer.slave","rgb-string":"#40ff00","marker-color":"#40ff00"}},{"type":"Feature","geometry":{"type":"Point","coordinates":[-3.188849,55.943658]},"properties":{"marker-symbol":"lighthouse","location":"labels.hotels.alert","rgb-string":"#40ff00","marker-color":"#40ff00"}},{"type":"Feature","geometry":{"type":"Point","coordinates":[-3.186296,55.945761]},"properties":{"marker-symbol":"cross","location":"posts.kicked.universally","rgb-string":"#000000","marker-color":"#000000"}},{"type":"Feature","geometry":{"type":"Point","coordinates":[-3.185814,55.94603]},"properties":{"marker-symbol":"danger","location":"renew.slows.basket","rgb-string":"#ffc000","marker-color":"#ffc000"}},{"type":"Feature","geometry":{"type":"Point","coordinates":[-3.189908,55.942904]},"properties":{"marker-symbol":"lighthouse","location":"second.launch.miles","rgb-string":"#40ff00","marker-color":"#40ff00"}},{"type":"Feature","geometry":{"type":"Point","coordinates":[-3.191113,55.943901]},"properties":{"marker-symbol":"cross","location":"spicy.bunch.shady","rgb-string":"#000000","marker-color":"#000000"}},{"type":"Feature","geometry":{"type":"Point","coordinates":[-3.187645,55.944143]},"properties":{"marker-symbol":"lighthouse","location":"bound.ends.matter","rgb-string":"#40ff00","marker-color":"#40ff00"}},{"type":"Feature","geometry":{"type":"Point","coordinates":[-3.190438,55.943982]},"properties":{"marker-symbol":"lighthouse","location":"pump.wheels.hulk","rgb-string":"#40ff00","marker-color":"#40ff00"}},{"type":"Feature","geometry":{"type":"Point","coordinates":[-3.184465,55.944952]},"properties":{"marker-symbol":"danger","location":"sports.topic.clocks","rgb-string":"#ff4000","marker-color":"#ff4000"}},{"type":"Feature","geometry":{"type":"Point","coordinates":[-3.184513,55.945302]},"properties":{"marker-symbol":"danger","location":"settle.title.united","rgb-string":"#ff4000","marker-color":"#ff4000"}},{"type":"Feature","geometry":{"type":"Point","coordinates":[-3.184658,55.943874]},"properties":{"marker-symbol":"danger","location":"rider.mile.lime","rgb-string":"#ff8000","marker-color":"#ff8000"}},{"type":"Feature","geometry":{"type":"Point","coordinates":[-3.186729,55.945168]},"properties":{"marker-symbol":"danger","location":"dragon.bottle.crisp","rgb-string":"#ff8000","marker-color":"#ff8000"}},{"type":"Feature","geometry":{"type":"Point","coordinates":[-3.188704,55.945168]},"properties":{"marker-symbol":"danger","location":"rooms.lamp.teach","rgb-string":"#ffc000","marker-color":"#ffc000"}},{"type":"Feature","geometry":{"type":"Point","coordinates":[-3.187018,55.942877]},"properties":{"marker-symbol":"danger","location":"valve.elaborate.fortunate","rgb-string":"#ffc000","marker-color":"#ffc000"}},{"type":"Feature","geometry":{"type":"Point","coordinates":[-3.190294,55.943712]},"properties":{"marker-symbol":"lighthouse","location":"sculpture.shot.melon","rgb-string":"#40ff00","marker-color":"#40ff00"}},{"type":"Feature","geometry":{"type":"Point","coordinates":[-3.191161,55.945976]},"properties":{"marker-symbol":"danger","location":"simple.rust.audio","rgb-string":"#ff8000","marker-color":"#ff8000"}},{"type":"Feature","geometry":{"type":"Point","coordinates":[-3.18567,55.944359]},"properties":{"marker-symbol":"danger","location":"atoms.vanish.foods","rgb-string":"#ffc000","marker-color":"#ffc000"}},{"type":"Feature","geometry":{"type":"Point","coordinates":[-3.187307,55.944494]},"properties":{"marker-symbol":"lighthouse","location":"only.fairly.rift","rgb-string":"#c0ff00","marker-color":"#c0ff00"}},{"type":"Feature","geometry":{"type":"Point","coordinates":[-3.187982,55.943497]},"properties":{"marker-symbol":"lighthouse","location":"scare.cubs.resort","rgb-string":"#00ff00","marker-color":"#00ff00"}},{"type":"Feature","geometry":{"type":"Point","coordinates":[-3.185621,55.943065]},"properties":{"marker-symbol":"danger","location":"toned.deflection.bland","rgb-string":"#ffc000","marker-color":"#ffc000"}},{"type":"Feature","geometry":{"type":"Point","coordinates":[-3.18933,55.945653]},"properties":{"marker-symbol":"danger","location":"museum.spicy.horns","rgb-string":"#ff4000","marker-color":"#ff4000"}},{"type":"Feature","geometry":{"type":"Point","coordinates":[-3.188897,55.945707]},"properties":{"marker-symbol":"danger","location":"stops.else.chats","rgb-string":"#ff4000","marker-color":"#ff4000"}},{"type":"Feature","geometry":{"type":"Point","coordinates":[-3.188463,55.945761]},"properties":{"location":"bend.tubes.chops","rgb-string":"#aaaaaa","marker-color":"#aaaaaa"}},{"type":"Feature","geometry":{"type":"LineString","coordinates":[[-3.188396,55.944425],[-3.1884986,55.9447069],[-3.1886012,55.9449888],[-3.1887038,55.9452707],[-3.1888064,55.9455526],[-3.1891019,55.9456047],[-3.1893973,55.9456568],[-3.1891675,55.945464],[-3.1889377,55.9452711],[-3.1887079,55.9450783],[-3.1884781,55.9448855],[-3.1882482,55.9446926],[-3.1880184,55.9444998],[-3.1877886,55.944307],[-3.1875958,55.9440772],[-3.1874458,55.9438173],[-3.1873937,55.9441128],[-3.1873416,55.9444082],[-3.1875344,55.9441784],[-3.1876844,55.9439186],[-3.1878773,55.9436888],[-3.1880273,55.943429],[-3.1878773,55.9431692],[-3.1877747,55.9428873],[-3.1874747,55.9428873],[-3.1871747,55.9428873],[-3.1874566,55.9429899],[-3.1877164,55.9431399],[-3.1879983,55.9432425],[-3.1882581,55.9433925],[-3.18854,55.9434951],[-3.1887998,55.9436451],[-3.1890952,55.943593],[-3.1893907,55.9435409],[-3.1892881,55.943259],[-3.189236,55.9429636],[-3.1894958,55.9431136],[-3.1897556,55.9432636],[-3.1900375,55.9433662],[-3.1902303,55.943596],[-3.1903803,55.9438558],[-3.1902303,55.943596],[-3.1901277,55.9433141],[-3.1899777,55.9430543],[-3.1902777,55.9430543],[-3.1905777,55.9430543],[-3.1907706,55.9432841],[-3.1909634,55.9435139],[-3.191066,55.9437958],[-3.1907841,55.9438984],[-3.1905022,55.944001],[-3.1902203,55.9441036],[-3.1899384,55.9442062],[-3.1896565,55.9443088],[-3.1893746,55.9444114],[-3.1890927,55.944514],[-3.1888108,55.9446166],[-3.1885153,55.9446687],[-3.1882334,55.9447713],[-3.187938,55.9448234],[-3.1877082,55.9446306],[-3.1874783,55.9444378],[-3.1872485,55.9446306],[-3.1869531,55.9446827],[-3.1866712,55.9447853],[-3.1864414,55.9449781],[-3.1867012,55.9451281],[-3.186894,55.9453579],[-3.1867012,55.9451281],[-3.1865512,55.9448683],[-3.1863583,55.9446385],[-3.1863062,55.944934],[-3.1862541,55.9452294],[-3.1862541,55.9455294],[-3.1863062,55.9458248],[-3.1860243,55.9459274],[-3.1857645,55.9460774],[-3.1858166,55.945782],[-3.1857645,55.9454866],[-3.1857645,55.9451866],[-3.1857124,55.9448911],[-3.1857645,55.9445957],[-3.1856619,55.9443138],[-3.1854021,55.9444638],[-3.1851423,55.9446138],[-3.1848825,55.9447638],[-3.1846006,55.9448664],[-3.1845485,55.9451618],[-3.1846006,55.9448664],[-3.1846527,55.9445709],[-3.1847048,55.9442755],[-3.1846527,55.94398],[-3.1849481,55.9440321],[-3.1852436,55.9440842],[-3.185539,55.9441363],[-3.1858344,55.9441884],[-3.1861299,55.9442405],[-3.1862325,55.9445224],[-3.1865144,55.944625],[-3.1868144,55.944625],[-3.1871144,55.944625],[-3.1868325,55.9447276],[-3.1865506,55.9448302],[-3.1866027,55.9451257],[-3.1868625,55.9452757],[-3.1870553,55.9455055],[-3.1872851,55.9456983],[-3.1875806,55.9456462],[-3.187876,55.9455941],[-3.1881715,55.9455421],[-3.1884669,55.94549],[-3.1887624,55.9454379],[-3.1890578,55.9453858],[-3.1893532,55.9453337],[-3.1896487,55.9452816],[-3.1899441,55.9452295],[-3.1902396,55.9451774],[-3.190535,55.9451253],[-3.1908169,55.9450227],[-3.1911124,55.9449706],[-3.1911124,55.9452706],[-3.1911124,55.9455706],[-3.1911645,55.945866],[-3.1909046,55.945716],[-3.1906448,55.945566],[-3.190385,55.945416],[-3.1901252,55.945266],[-3.1898654,55.945116],[-3.1896056,55.944966],[-3.1893458,55.944816],[-3.189086,55.944666],[-3.1888041,55.9445634],[-3.1885443,55.9444134],[-3.1882624,55.9443108],[-3.1880026,55.9441608],[-3.1877207,55.9440582],[-3.1874608,55.9439082],[-3.1871789,55.9438056],[-3.1869191,55.9436556],[-3.1866372,55.943553],[-3.1863774,55.943403],[-3.1860955,55.9433004],[-3.1858357,55.9431504],[-3.1855538,55.9430478],[-3.1857836,55.9432406],[-3.1860134,55.9434335],[-3.1862432,55.9436263],[-3.186473,55.9438191],[-3.1867029,55.944012],[-3.1864209,55.9441146],[-3.1861255,55.9441667]]},"properties":{}}]}