{"type":"FeatureCollection","features":[{"type":"Feature","geometry":{"type":"Point","coordinates":[-3.187307,55.944494]},"properties":{"marker-symbol":"danger","location":"only.fairly.rift","rgb-string":"#ffc000","marker-color":"#ffc000"}},{"type":"Feature","geometry":{"type":"Point","coordinates":[-3.186296,55.945761]},"properties":{"marker-symbol":"danger","location":"posts.kicked.universally","rgb-string":"#ff4000","marker-color":"#ff4000"}},{"type":"Feature","geometry":{"type":"Point","coordinates":[-3.185236,55.944575]},"properties":{"marker-symbol":"danger","location":"acid.chair.butter","rgb-string":"#ff8000","marker-color":"#ff8000"}},{"type":"Feature","geometry":{"type":"Point","coordinates":[-3.186007,55.943901]},"properties":{"marker-symbol":"danger","location":"teams.mild.played","rgb-string":"#ffc000","marker-color":"#ffc000"}},{"type":"Feature","geometry":{"type":"Point","coordinates":[-3.188319,55.945518]},"properties":{"marker-symbol":"cross","location":"skills.less.herb","rgb-string":"#000000","marker-color":"#000000"}},{"type":"Feature","geometry":{"type":"Point","coordinates":[-3.187018,55.943982]},"properties":{"marker-symbol":"lighthouse","location":"renew.ears.tend","rgb-string":"#80ff00","marker-color":"#80ff00"}},{"type":"Feature","geometry":{"type":"Point","coordinates":[-3.184947,55.943443]},"properties":{"marker-symbol":"danger","location":"sentences.sings.modern","rgb-string":"#ffc000","marker-color":"#ffc000"}},{"type":"Feature","geometry":{"type":"Point","coordinates":[-3.191065,55.94444]},"properties":{"marker-symbol":"lighthouse","location":"paying.crowd.weep","rgb-string":"#40ff00","marker-color":"#40ff00"}},{"type":"Feature","geometry":{"type":"Point","coordinates":[-3.186729,55.945168]},"properties":{"marker-symbol":"danger","location":"dragon.bottle.crisp","rgb-string":"#ffc000","marker-color":"#ffc000"}},{"type":"Feature","geometry":{"type":"Point","coordinates":[-3.185525,55.943982]},"properties":{"marker-symbol":"danger","location":"manliness.poem.cliff","rgb-string":"#ffc000","marker-color":"#ffc000"}},{"type":"Feature","geometry":{"type":"Point","coordinates":[-3.189764,55.942661]},"properties":{"marker-symbol":"lighthouse","location":"hooked.shine.third","rgb-string":"#40ff00","marker-color":"#40ff00"}},{"type":"Feature","geometry":{"type":"Point","coordinates":[-3.189138,55.944197]},"properties":{"marker-symbol":"lighthouse","location":"spoon.invest.every","rgb-string":"#40ff00","marker-color":"#40ff00"}},{"type":"Feature","geometry":{"type":"Point","coordinates":[-3.191161,55.945976]},"properties":{"marker-symbol":"cross","location":"simple.rust.audio","rgb-string":"#000000","marker-color":"#000000"}},{"type":"Feature","geometry":{"type":"Point","coordinates":[-3.191161,55.943362]},"properties":{"marker-symbol":"lighthouse","location":"meal.feed.large","rgb-string":"#40ff00","marker-color":"#40ff00"}},{"type":"Feature","geometry":{"type":"Point","coordinates":[-3.185621,55.945761]},"properties":{"marker-symbol":"danger","location":"shed.desire.muddy","rgb-string":"#ff4000","marker-color":"#ff4000"}},{"type":"Feature","geometry":{"type":"Point","coordinates":[-3.188608,55.943119]},"properties":{"marker-symbol":"lighthouse","location":"groups.ideas.script","rgb-string":"#40ff00","marker-color":"#40ff00"}},{"type":"Feature","geometry":{"type":"Point","coordinates":[-3.188271,55.944063]},"properties":{"marker-symbol":"lighthouse","location":"rush.crown.link","rgb-string":"#00ff00","marker-color":"#00ff00"}},{"type":"Feature","geometry":{"type":"Point","coordinates":[-3.190727,55.943092]},"properties":{"marker-symbol":"lighthouse","location":"relate.chill.vest","rgb-string":"#00ff00","marker-color":"#00ff00"}},{"type":"Feature","geometry":{"type":"Point","coordinates":[-3.187355,55.943604]},"properties":{"marker-symbol":"lighthouse","location":"shut.stands.media","rgb-string":"#80ff00","marker-color":"#80ff00"}},{"type":"Feature","geometry":{"type":"Point","coordinates":[-3.184513,55.945302]},"properties":{"marker-symbol":"danger","location":"settle.title.united","rgb-string":"#ff4000","marker-color":"#ff4000"}},{"type":"Feature","geometry":{"type":"Point","coordinates":[-3.187789,55.944386]},"properties":{"marker-symbol":"lighthouse","location":"thank.salsa.brain","rgb-string":"#40ff00","marker-color":"#40ff00"}},{"type":"Feature","geometry":{"type":"Point","coordinates":[-3.18697,55.942688]},"properties":{"marker-symbol":"danger","location":"strut.river.surely","rgb-string":"#ff4000","marker-color":"#ff4000"}},{"type":"Feature","geometry":{"type":"Point","coordinates":[-3.189812,55.94409]},"properties":{"marker-symbol":"lighthouse","location":"cliff.asleep.wedge","rgb-string":"#40ff00","marker-color":"#40ff00"}},{"type":"Feature","geometry":{"type":"Point","coordinates":[-3.188897,55.945707]},"properties":{"marker-symbol":"danger","location":"stops.else.chats","rgb-string":"#ff0000","marker-color":"#ff0000"}},{"type":"Feature","geometry":{"type":"Point","coordinates":[-3.186103,55.944251]},"properties":{"marker-symbol":"danger","location":"organs.shape.fantastic","rgb-string":"#ff4000","marker-color":"#ff4000"}},{"type":"Feature","geometry":{"type":"Point","coordinates":[-3.191161,55.942742]},"properties":{"marker-symbol":"lighthouse","location":"along.spill.limp","rgb-string":"#00ff00","marker-color":"#00ff00"}},{"type":"Feature","geometry":{"type":"Point","coordinates":[-3.190294,55.943712]},"properties":{"marker-symbol":"lighthouse","location":"sculpture.shot.melon","rgb-string":"#40ff00","marker-color":"#40ff00"}},{"type":"Feature","geometry":{"type":"Point","coordinates":[-3.188704,55.943389]},"properties":{"marker-symbol":"lighthouse","location":"system.speak.guard","rgb-string":"#00ff00","marker-color":"#00ff00"}},{"type":"Feature","geometry":{"type":"Point","coordinates":[-3.191113,55.943901]},"properties":{"marker-symbol":"lighthouse","location":"spicy.bunch.shady","rgb-string":"#00ff00","marker-color":"#00ff00"}},{"type":"Feature","geometry":{"type":"Point","coordinates":[-3.184899,55.944736]},"properties":{"marker-symbol":"cross","location":"slide.leads.stores","rgb-string":"#000000","marker-color":"#000000"}},{"type":"Feature","geometry":{"type":"Point","coordinates":[-3.188126,55.943793]},"properties":{"marker-symbol":"lighthouse","location":"cubs.trucks.help","rgb-string":"#40ff00","marker-color":"#40ff00"}},{"type":"Feature","geometry":{"type":"Point","coordinates":[-3.185814,55.94603]},"properties":{"marker-symbol":"danger","location":"renew.slows.basket","rgb-string":"#ff0000","marker-color":"#ff0000"}},{"type":"Feature","geometry":{"type":"Point","coordinates":[-3.191161,55.943065]},"properties":{"marker-symbol":"lighthouse","location":"else.urban.museum","rgb-string":"#00ff00","marker-color":"#00ff00"}},{"type":"Feature","geometry":{"type":"LineString","coordinates":[[-3.188396,55.944425],[-3.1886779,55.9443224],[-3.1889598,55.9442198],[-3.1892417,55.9441172],[-3.1895236,55.9440146],[-3.1898055,55.943912],[-3.1900874,55.9438094],[-3.1903694,55.9437068],[-3.1906513,55.9436042],[-3.1909111,55.9434542],[-3.191193,55.9433515],[-3.191193,55.9430515],[-3.1911409,55.9427561],[-3.190859,55.9428587],[-3.1905771,55.9429613],[-3.1903173,55.9431113],[-3.1900354,55.9432139],[-3.1897755,55.9433639],[-3.1894936,55.9434665],[-3.1892338,55.9436165],[-3.1889519,55.9437191],[-3.1886921,55.9438691],[-3.1884102,55.9439717],[-3.1881504,55.9438217],[-3.1884504,55.9438217],[-3.1887504,55.9438217],[-3.1890504,55.9438217],[-3.1893504,55.9438217],[-3.1896504,55.9438217],[-3.1899504,55.9438217],[-3.1902504,55.9438217],[-3.1905458,55.9438738],[-3.1908458,55.9438738],[-3.1911413,55.9439259],[-3.1910892,55.9442214],[-3.1910371,55.9445168],[-3.1907371,55.9445168],[-3.1904371,55.9445168],[-3.1901371,55.9445168],[-3.1898371,55.9445168],[-3.1895371,55.9445168],[-3.1892371,55.9445168],[-3.1889417,55.9444647],[-3.1886417,55.9444647],[-3.1883462,55.9444126],[-3.1880462,55.9444126],[-3.1877508,55.9443605],[-3.1874689,55.9444631],[-3.187276,55.9442333],[-3.1870462,55.9440405],[-3.187239,55.9438107],[-3.187389,55.9435509],[-3.1876845,55.9434988],[-3.1879799,55.9434467],[-3.1882799,55.9434467],[-3.1885754,55.9433946],[-3.1886275,55.9430991],[-3.1884346,55.943329],[-3.1882418,55.9435588],[-3.188049,55.9437886],[-3.1878561,55.9440184],[-3.1876633,55.9442482],[-3.1874335,55.944441],[-3.1872037,55.9446339],[-3.1869082,55.944686],[-3.1866484,55.944836],[-3.1863665,55.9449386],[-3.1866263,55.9450886],[-3.1864763,55.9453484],[-3.1863737,55.9456303],[-3.1861439,55.9458231],[-3.1858841,55.9459731],[-3.1856543,55.9457803],[-3.1857569,55.9454984],[-3.1858595,55.9452165],[-3.1859116,55.944921],[-3.1860142,55.9446391],[-3.1860663,55.9443437],[-3.1860142,55.9440482],[-3.1857187,55.9439961],[-3.1855259,55.944226],[-3.1853331,55.9444558],[-3.1850733,55.9446058],[-3.1848434,55.9447986],[-3.1846934,55.9450584],[-3.1845006,55.9452882],[-3.1845527,55.9449928],[-3.1846048,55.9446973],[-3.1847074,55.9444154],[-3.1847595,55.94412],[-3.1848621,55.9438381],[-3.1849142,55.9435426],[-3.1851961,55.94344],[-3.185478,55.9433374],[-3.1857599,55.9432348],[-3.1860418,55.9431322],[-3.1863016,55.9429822],[-3.1865835,55.9428796],[-3.1868434,55.9427296],[-3.1871434,55.9427296],[-3.1874434,55.9427296],[-3.1877434,55.9427296],[-3.1880434,55.9427296],[-3.1883434,55.9427296],[-3.1884934,55.9429894],[-3.1887753,55.943092],[-3.1890572,55.9429894],[-3.1893391,55.9428868],[-3.1896345,55.9428347],[-3.18993,55.9427826],[-3.1902119,55.94268],[-3.1899119,55.94268],[-3.1897619,55.9429398],[-3.1896119,55.9431996],[-3.1894619,55.9434594],[-3.1893119,55.9437193],[-3.1891619,55.9439791],[-3.1890119,55.9442389],[-3.1888619,55.9444987],[-3.1887119,55.9447585],[-3.1885619,55.9450183],[-3.1884119,55.9452781],[-3.1883093,55.94556],[-3.1886047,55.9456121],[-3.1888866,55.9457147],[-3.1891821,55.9457668],[-3.1894775,55.9458189],[-3.1897729,55.945871],[-3.1900729,55.945871],[-3.1903684,55.9459231],[-3.1906684,55.9459231],[-3.1909638,55.9459752],[-3.190704,55.9458252],[-3.1904442,55.9456752],[-3.1901844,55.9455252],[-3.1899246,55.9453752],[-3.1896648,55.9452252],[-3.189405,55.9450752],[-3.1891452,55.9449252],[-3.1888854,55.9447752],[-3.1886556,55.9445823],[-3.1883957,55.9444323]]},"properties":{}}]}