{"type":"FeatureCollection","features":[{"type":"Feature","geometry":{"type":"Point","coordinates":[-3.18514,55.943685]},"properties":{"marker-symbol":"danger","location":"hello.love.keys","rgb-string":"#ffc000","marker-color":"#ffc000"}},{"type":"Feature","geometry":{"type":"Point","coordinates":[-3.192221,55.945114]},"properties":{"marker-symbol":"danger","location":"useful.hike.trades","rgb-string":"#ffc000","marker-color":"#ffc000"}},{"type":"Feature","geometry":{"type":"Point","coordinates":[-3.189234,55.943012]},"properties":{"marker-symbol":"lighthouse","location":"region.passes.pencil","rgb-string":"#40ff00","marker-color":"#40ff00"}},{"type":"Feature","geometry":{"type":"Point","coordinates":[-3.191161,55.943065]},"properties":{"marker-symbol":"cross","location":"else.urban.museum","rgb-string":"#000000","marker-color":"#000000"}},{"type":"Feature","geometry":{"type":"Point","coordinates":[-3.187789,55.944386]},"properties":{"marker-symbol":"lighthouse","location":"thank.salsa.brain","rgb-string":"#80ff00","marker-color":"#80ff00"}},{"type":"Feature","geometry":{"type":"Point","coordinates":[-3.191065,55.944709]},"properties":{"marker-symbol":"lighthouse","location":"estate.gave.votes","rgb-string":"#40ff00","marker-color":"#40ff00"}},{"type":"Feature","geometry":{"type":"Point","coordinates":[-3.189138,55.944197]},"properties":{"marker-symbol":"lighthouse","location":"spoon.invest.every","rgb-string":"#40ff00","marker-color":"#40ff00"}},{"type":"Feature","geometry":{"type":"Point","coordinates":[-3.185621,55.943065]},"properties":{"marker-symbol":"danger","location":"toned.deflection.bland","rgb-string":"#ffc000","marker-color":"#ffc000"}},{"type":"Feature","geometry":{"type":"Point","coordinates":[-3.188608,55.943119]},"properties":{"marker-symbol":"lighthouse","location":"groups.ideas.script","rgb-string":"#80ff00","marker-color":"#80ff00"}},{"type":"Feature","geometry":{"type":"Point","coordinates":[-3.187018,55.943982]},"properties":{"marker-symbol":"lighthouse","location":"renew.ears.tend","rgb-string":"#c0ff00","marker-color":"#c0ff00"}},{"type":"Feature","geometry":{"type":"Point","coordinates":[-3.189812,55.94409]},"properties":{"marker-symbol":"lighthouse","location":"cliff.asleep.wedge","rgb-string":"#40ff00","marker-color":"#40ff00"}},{"type":"Feature","geometry":{"type":"Point","coordinates":[-3.18856,55.946057]},"properties":{"marker-symbol":"danger","location":"boost.radar.stress","rgb-string":"#ff4000","marker-color":"#ff4000"}},{"type":"Feature","geometry":{"type":"Point","coordinates":[-3.191113,55.943631]},"properties":{"marker-symbol":"lighthouse","location":"loaf.cheer.slave","rgb-string":"#00ff00","marker-color":"#00ff00"}},{"type":"Feature","geometry":{"type":"Point","coordinates":[-3.184803,55.943173]},"properties":{"marker-symbol":"cross","location":"brings.remedy.latter","rgb-string":"#000000","marker-color":"#000000"}},{"type":"Feature","geometry":{"type":"Point","coordinates":[-3.191065,55.94444]},"properties":{"marker-symbol":"cross","location":"paying.crowd.weep","rgb-string":"#000000","marker-color":"#000000"}},{"type":"Feature","geometry":{"type":"Point","coordinates":[-3.187018,55.942877]},"properties":{"marker-symbol":"cross","location":"valve.elaborate.fortunate","rgb-string":"#000000","marker-color":"#000000"}},{"type":"Feature","geometry":{"type":"Point","coordinates":[-3.185573,55.942877]},"properties":{"marker-symbol":"danger","location":"dent.shins.cycle","rgb-string":"#ff0000","marker-color":"#ff0000"}},{"type":"Feature","geometry":{"type":"Point","coordinates":[-3.18697,55.942688]},"properties":{"marker-symbol":"danger","location":"strut.river.surely","rgb-string":"#ffc000","marker-color":"#ffc000"}},{"type":"Feature","geometry":{"type":"Point","coordinates":[-3.185814,55.94603]},"properties":{"marker-symbol":"danger","location":"renew.slows.basket","rgb-string":"#ff8000","marker-color":"#ff8000"}},{"type":"Feature","geometry":{"type":"Point","coordinates":[-3.188945,55.943928]},"properties":{"marker-symbol":"lighthouse","location":"noted.friday.jams","rgb-string":"#40ff00","marker-color":"#40ff00"}},{"type":"Feature","geometry":{"type":"Point","coordinates":[-3.185525,55.943982]},"properties":{"marker-symbol":"lighthouse","location":"manliness.poem.cliff","rgb-string":"#c0ff00","marker-color":"#c0ff00"}},{"type":"Feature","geometry":{"type":"Point","coordinates":[-3.184465,55.944952]},"properties":{"marker-symbol":"danger","location":"sports.topic.clocks","rgb-string":"#ff4000","marker-color":"#ff4000"}},{"type":"Feature","geometry":{"type":"Point","coordinates":[-3.191113,55.94417]},"properties":{"marker-symbol":"lighthouse","location":"hills.giant.crate","rgb-string":"#00ff00","marker-color":"#00ff00"}},{"type":"Feature","geometry":{"type":"Point","coordinates":[-3.189379,55.945949]},"properties":{"marker-symbol":"danger","location":"coherent.saints.stuck","rgb-string":"#ff0000","marker-color":"#ff0000"}},{"type":"Feature","geometry":{"type":"Point","coordinates":[-3.184754,55.943012]},"properties":{"marker-symbol":"danger","location":"courier.assume.bill","rgb-string":"#ff4000","marker-color":"#ff4000"}},{"type":"Feature","geometry":{"type":"Point","coordinates":[-3.189764,55.942661]},"properties":{"marker-symbol":"lighthouse","location":"hooked.shine.third","rgb-string":"#40ff00","marker-color":"#40ff00"}},{"type":"Feature","geometry":{"type":"Point","coordinates":[-3.186248,55.942796]},"properties":{"marker-symbol":"danger","location":"under.retire.bump","rgb-string":"#ff0000","marker-color":"#ff0000"}},{"type":"Feature","geometry":{"type":"Point","coordinates":[-3.189908,55.942904]},"properties":{"marker-symbol":"cross","location":"second.launch.miles","rgb-string":"#000000","marker-color":"#000000"}},{"type":"Feature","geometry":{"type":"Point","coordinates":[-3.186344,55.942958]},"properties":{"marker-symbol":"danger","location":"hers.banks.goat","rgb-string":"#ffc000","marker-color":"#ffc000"}},{"type":"Feature","geometry":{"type":"Point","coordinates":[-3.187211,55.943335]},"properties":{"marker-symbol":"danger","location":"scale.chair.kinds","rgb-string":"#ffc000","marker-color":"#ffc000"}},{"type":"Feature","geometry":{"type":"Point","coordinates":[-3.186922,55.945437]},"properties":{"marker-symbol":"danger","location":"spent.spoon.bolt","rgb-string":"#ff4000","marker-color":"#ff4000"}},{"type":"Feature","geometry":{"type":"Point","coordinates":[-3.18803,55.944979]},"properties":{"marker-symbol":"lighthouse","location":"agents.mile.crib","rgb-string":"#c0ff00","marker-color":"#c0ff00"}},{"type":"Feature","geometry":{"type":"Point","coordinates":[-3.188801,55.945437]},"properties":{"marker-symbol":"danger","location":"shady.soft.phones","rgb-string":"#ffc000","marker-color":"#ffc000"}},{"type":"Feature","geometry":{"type":"LineString","coordinates":[[-3.188396,55.944425],[-3.188096,55.944425],[-3.1878006,55.9443729],[-3.1879032,55.9446548],[-3.1880058,55.9449367],[-3.1881558,55.9451965],[-3.1883058,55.9454563],[-3.1884084,55.9457382],[-3.1885584,55.9459981],[-3.1886105,55.9457026],[-3.1886626,55.9454072],[-3.1887147,55.9451117],[-3.1887668,55.9448163],[-3.1888188,55.9445208],[-3.1888709,55.9442254],[-3.188923,55.94393],[-3.1891159,55.9441598],[-3.1894113,55.9441077],[-3.1897113,55.9441077],[-3.1896592,55.9444031],[-3.1896071,55.9446986],[-3.189555,55.944994],[-3.1895029,55.9452894],[-3.1894508,55.9455849],[-3.1893987,55.9458803],[-3.1891689,55.9456875],[-3.1889391,55.9454947],[-3.1887093,55.9453018],[-3.1884795,55.945109],[-3.1882497,55.9449161],[-3.1880199,55.9447233],[-3.1877901,55.9445305],[-3.1875602,55.9443376],[-3.1873004,55.9441876],[-3.1870706,55.9439948],[-3.1871227,55.9436994],[-3.1871748,55.9434039],[-3.1870722,55.943122],[-3.1870201,55.9428266],[-3.1872499,55.9426337],[-3.1869545,55.9426858],[-3.1866726,55.9427884],[-3.1864128,55.9429384],[-3.186183,55.9427456],[-3.1858875,55.9427977],[-3.1855921,55.9428498],[-3.1856442,55.9431452],[-3.1854513,55.943375],[-3.1852215,55.9435679],[-3.1854143,55.9437977],[-3.1855643,55.9440575],[-3.1853715,55.9438277],[-3.1851787,55.9435979],[-3.1849858,55.9433681],[-3.184793,55.9431382],[-3.1846904,55.9428563],[-3.1849904,55.9428563],[-3.1852904,55.9428563],[-3.1855904,55.9428563],[-3.1858904,55.9428563],[-3.1861858,55.9429084],[-3.1864858,55.9429084],[-3.1867813,55.9429605],[-3.1870813,55.9429605],[-3.1873767,55.9430126],[-3.1876767,55.9430126],[-3.1879722,55.9430647],[-3.1882722,55.9430647],[-3.1885676,55.9431168],[-3.1888631,55.9430647],[-3.1891585,55.9430126],[-3.1894183,55.9428626],[-3.1897137,55.9428105],[-3.1899736,55.9429605],[-3.1897437,55.9431534],[-3.1895139,55.9433462],[-3.1892841,55.943539],[-3.1890543,55.9437319],[-3.1888245,55.9439247],[-3.1885947,55.9441175],[-3.1883649,55.9443104],[-3.188135,55.9445032],[-3.1879052,55.9446961],[-3.1876454,55.9445461],[-3.18735,55.9445981],[-3.1870545,55.9446502],[-3.1867726,55.9447528],[-3.1865128,55.9449028],[-3.1867057,55.9451327],[-3.1868985,55.9453625],[-3.1866387,55.9455125],[-3.1863789,55.9456625],[-3.1861191,55.9458125],[-3.1858893,55.9460053],[-3.1861491,55.9458553],[-3.1864089,55.9457053],[-3.1866687,55.9455553],[-3.1869285,55.9454053],[-3.1871583,55.9455981],[-3.1874402,55.9454955],[-3.1877402,55.9454955],[-3.1880357,55.9454434],[-3.1882955,55.9452934],[-3.1885253,55.9451006],[-3.1887551,55.9449078],[-3.1889849,55.9447149],[-3.1892147,55.9445221],[-3.1894445,55.9443293],[-3.1896743,55.9441364],[-3.1899042,55.9439436],[-3.190164,55.9437936],[-3.1903938,55.9436008],[-3.1906536,55.9434508],[-3.1908834,55.9432579],[-3.1911432,55.9431079],[-3.1911432,55.9434079],[-3.1910911,55.9437034],[-3.1910911,55.9440034],[-3.1910911,55.9443034],[-3.1910911,55.9446034],[-3.191373,55.944706],[-3.1916328,55.944856],[-3.1919147,55.9449586],[-3.1921745,55.9451086],[-3.1918745,55.9451086],[-3.1915745,55.9451086],[-3.1912745,55.9451086],[-3.1909745,55.9451086],[-3.1906745,55.9451086],[-3.1903745,55.9451086],[-3.1900745,55.9451086],[-3.1897745,55.9451086],[-3.1894745,55.9451086],[-3.1891745,55.9451086],[-3.1888745,55.9451086],[-3.1885745,55.9451086],[-3.1882745,55.9451086],[-3.1879745,55.9451086],[-3.1878245,55.9448488],[-3.1876745,55.944589],[-3.1873791,55.9445369],[-3.1870837,55.944589],[-3.1867882,55.9446411],[-3.1864928,55.9446931],[-3.1861973,55.9447452],[-3.1859019,55.9447973],[-3.1856064,55.9448494],[-3.185311,55.9449015],[-3.185011,55.9449015],[-3.1847156,55.9449536],[-3.1844156,55.9449536]]},"properties":{}}]}